Station,Latitude,Longitude,Line,Colour,Distance,Extra,,,,,,
Baker Street,51.52265,-0.15704,Bakerloo,#B36305,3.102079798,,,,,,,
Charing Cross,51.507108,-0.122963,Bakerloo,#B36305,0.75552817,,,,,,,
Edgware Road,51.51956,-0.169068,Bakerloo,#B36305,3.795688541,,,,,,,
Elephant & Castle,51.49467,-0.10047,Bakerloo,#B36305,2.200302235,,,,,,,
Embankment,51.50717,-0.12195,Bakerloo,#B36305,0.704374924,,,,,,,
Harlesden,51.53628278,-0.257622488,Bakerloo,#B36305,10.19099064,,,,,,,
Harrow & Wealdstone,51.59205973,-0.334725352,Bakerloo,#B36305,17.57066198,,,,,,,
Kensal Green,51.53060655,-0.224253545,Bakerloo,#B36305,7.798130125,,,,,Central Lat,,51.512092
Kenton,51.58173809,-0.316870809,Bakerloo,#B36305,15.93067091,,,,,Central Long,,-0.115543
Kilburn Park,51.53495818,-0.193963023,Bakerloo,#B36305,5.991705346,,,,,,,
Lambeth North,51.49894,-0.11216,Bakerloo,#B36305,1.481061024,,,,,,,
Maida Vale,51.52989409,-0.185888819,Bakerloo,#B36305,5.254270078,,,,,,,
Marylebone,51.52266,-0.162996,Bakerloo,#B36305,3.487410234,,,,,,,
North Wembley,51.56258091,-0.304072648,Bakerloo,#B36305,14.19663603,,,,,,,
Oxford Circus,51.51517,-0.14119,Bakerloo,#B36305,1.807466769,,,,,,,
Paddington,51.51518466,-0.175538808,Bakerloo,#B36305,4.165912853,,,,,,,
Piccadilly Circus,51.51022,-0.13392,Bakerloo,#B36305,1.288675831,,,,,,,
Queen's Park 2,51.534179,-0.205257721,Bakerloo,#B36305,6.67516847,,,,,,,
Regent's Park,51.52344,-0.14713,Bakerloo,#B36305,2.523717695,,,,,,,
South Kenton,51.57044666,-0.308566354,Bakerloo,#B36305,14.84254408,,,,,,,
Stonebridge Park,51.54402388,-0.275978856,Bakerloo,#B36305,11.6527343,,,,,,,
Warwick Avenue,51.52329728,-0.183777837,Bakerloo,#B36305,4.883050738,,,,,,,
Waterloo,51.50322,-0.11328,Bakerloo,#B36305,0.998876445,,,,,,,
Wembley Central,51.55122817,-0.29577538,Bakerloo,#B36305,13.2047785,,,,,,,
Willesden Junction,51.53181,-0.24235,Bakerloo,#B36305,9.043227741,,,,,,,
Bank,51.5134047,-0.08905843,Central,#E32017,1.838564841,,,,,,,
Barkingside,51.58543,0.08854,Central,#E32017,16.29840485,,,,,,,
Bethnal Green,51.52718,-0.05504,Central,#E32017,4.50991387,,,,,,,
Bond Street,51.51461,-0.14897,Central,#E32017,2.330038305,,,,,,,
Buckhurst Hill,51.62611,0.04705,Central,#E32017,16.94174582,,,,,,,
Chancery Lane,51.51836,-0.11115,Central,#E32017,0.760376967,,,,,,,
Chigwell,51.61795,0.07511,Central,#E32017,17.66973194,,,,,,,
Debden,51.64535,0.08364,Central,#E32017,20.22376946,,,,,,,
Ealing Broadway,51.51482,-0.30118,Central,#E32017,12.8496635,,,,,,,
East Acton,51.51753,-0.24827,Central,#E32017,9.204321563,,,,,,,
Epping,51.69365,0.11495,Central,#E32017,25.70943815,,,,,,,
Fairlop,51.59634,0.09125,Central,#E32017,17.09298635,,,,,,,
Gants Hill,51.57649,0.06637,Central,#E32017,14.47511042,,,,,,,
Grange Hill,51.61326,0.09258,Central,#E32017,18.2625489,,,,,,,
Greenford,51.542346,-0.345903,Central,#E32017,16.28730247,,,,,,,
Hainault,51.60288,0.09332,Central,#E32017,17.61836649,,,,,,,
Hanger Lane,51.53,-0.2929,Central,#E32017,12.43157833,,,,,,,
Holborn,51.51711,-0.12055,Central,#E32017,0.656797453,,,,,,,
Holland Park,51.50722,-0.20553,Central,#E32017,6.251140841,,,,,,,
Lancaster Gate,51.512083,-0.175067,Central,#E32017,4.119186349,,,,,,,
Leyton,51.556483,-0.005669,Central,#E32017,9.062100322,,,,,,,
Leytonstone,51.56828,0.00739,Central,#E32017,10.5507717,,,,,,,
Liverpool Street,51.517675,-0.082458,Central,#E32017,2.372087264,,,,,,,
Loughton,51.6417,0.05583,Central,#E32017,18.65322629,,,,,,,
Marble Arch,51.513597,-0.15869195,Central,#E32017,2.990634549,,,,,,,
Mile End,51.525306,-0.033471,Central,#E32017,5.865740664,,,,,,,
Newbury Park,51.57565,0.08927,Central,#E32017,15.82891178,,,,,,,
North Acton,51.5237,-0.26019,Central,#E32017,10.09148647,,,,,,,
Northolt,51.548054,-0.368257,Central,#E32017,17.93294721,,,,,,,
Notting Hill Gate,51.509028,-0.1962847,Central,#E32017,5.598060251,,,,,,,
Oxford Circus 2,51.51517,-0.14119,Central,#E32017,1.807466769,,,,,,,
Perivale,51.536673,-0.32391,Central,#E32017,14.67237469,,,,,,,
Queensway,51.510484,-0.18705,Central,#E32017,4.95175106,,,,,,,
Redbridge,51.57618,0.04542,Central,#E32017,13.2168742,,,,,,,
Roding Valley,51.61691,0.04264,Central,#E32017,15.98112817,,,,,,,
Ruislip Gardens,51.560711,-0.410587,Central,#E32017,21.11071562,,,,,,,
Shepherd's Bush,51.50474,-0.21881,Central,#E32017,7.193473319,,,,,,,
Snaresbrook,51.58002,0.02133,Central,#E32017,12.1092775,,,,,,,
South Ruislip,51.556795,-0.398708,Central,#E32017,20.20690534,,,,,,,
South Woodford,51.59088,0.02726,Central,#E32017,13.20008686,,,,,,,
St.Paul's,51.515285,-0.097598,Central,#E32017,1.29154759,,,,,,,
Stratford,51.541208,-0.003776,Central,#E32017,8.382490925,,,,,,,
Theydon Bois,51.67246,0.10354,Central,#E32017,23.38867658,,,,,,,
Tottenham Court Road,51.51672074,-0.13093911,Central,#E32017,1.183199945,,,,,,,
Wanstead,51.57565,0.02864,Central,#E32017,12.22145532,,,,,,,
West Acton,51.51818,-0.28064,Central,#E32017,11.44433273,,,,,,,
West Ruislip,51.569324,-0.43674,Central,#E32017,23.10713668,,,,,,,
White City,51.512206,-0.224226,Central,#E32017,7.521092658,,,,,,,
Woodford,51.60582,0.03328,Central,#E32017,14.64472474,,,,,,,
Aldgate,51.51394,-0.07537,Circle,#FFD300,2.787583783,,,,,,,
Baker Street 2,51.52265,-0.15704,Circle,#FFD300,3.102079798,,,,,,,
Barbican,51.520865,-0.097758,Circle,#FFD300,1.57038299,,,,,,,
Bayswater,51.51224,-0.187569,Circle,#FFD300,4.984369485,,,,,,,
Blackfriars,51.5114403,-0.1041905,Circle,#FFD300,0.788957531,,,,,,,
Cannon Street,51.51141,-0.09047,Circle,#FFD300,1.736773718,,,,,,,
Edgware Road 2,51.520195,-0.166986,Circle,#FFD300,3.671908298,,,,,,,
Embankment 2,51.50717,-0.12195,Circle,#FFD300,0.704374924,,,,,,,
Euston Square,51.52584,-0.1357,Circle,#FFD300,2.069329688,,,,,,,
Gloucester Road,51.49408266,-0.17295341,Circle,#FFD300,4.449779297,,,,,,,
Goldhawk Road,51.501248,-0.226776,Circle,#FFD300,7.792331559,,,,,,,
Great Portland Street,51.52391,-0.14397,Circle,#FFD300,2.365537369,,,,,,,
Hammersmith,51.49419075,-0.225964953,Circle,#FFD300,7.897886276,,,,,,,
High Street Kensington,51.50034591,-0.192351664,Circle,#FFD300,5.474105394,,,,,,,
King's Cross St.Pancras,51.53057,-0.12399,Circle,#FFD300,2.136161838,,,,,,,
Ladbroke Grove,51.5173,-0.21114,Circle,#FFD300,6.640434319,,,,,,,
Latimer Road,51.513125,-0.218428,Circle,#FFD300,7.120703478,,,,,,,
Liverpool Street 2,51.517675,-0.082458,Circle,#FFD300,2.372087264,,,,,,,
Mansion House,51.51256,-0.09397,Circle,#FFD300,1.493795996,,,,,,,
Monument,51.510165,-0.085991,Circle,#FFD300,2.056298168,,,,,,,
Moorgate,51.51817,-0.08859,Circle,#FFD300,1.983755569,,,,,,,
Notting Hill Gate 2,51.509028,-0.1962847,Circle,#FFD300,5.598060251,,,,,,,
Paddington 2,51.51909671,-0.176968859,Circle,#FFD300,4.321246964,,,,,,,
Royal Oak,51.519383,-0.187785,Circle,#FFD300,5.06421282,,,,,,,
Shepherd's Bush Market,51.506063,-0.226231,Circle,#FFD300,7.68962717,,,,,,,
Sloane Square,51.49258474,-0.156090904,Circle,#FFD300,3.547117025,,,,,,,
South Kensington,51.494066,-0.172791,Circle,#FFD300,4.440580062,,,,,,,
St.James's Park,51.49971,-0.13394,Circle,#FFD300,1.875332895,,,,,,,
Temple,51.51114,-0.11341,Circle,#FFD300,0.181643703,,,,,,,
Tower Hill,51.50991,-0.076813,Circle,#FFD300,2.691220937,,,,,,,
Victoria,51.49662869,-0.14400853,Circle,#FFD300,2.614995627,,,,,,,
Westbourne Park,51.520995,-0.201778,Circle,#FFD300,6.04862295,,,,,,,
Westminster,51.50121,-0.12489,Circle,#FFD300,1.372096123,,,,,,,
Wood Lane,51.5091345,-0.2252285,Circle,#FFD300,7.597833238,,,,,,,
Acton Town,51.5025,-0.278126,District,#00782A,11.30270408,,,,,,,
Aldgate East,51.51514,-0.07178,District,#00782A,3.047296449,,,,,,,
Barking,51.54079,0.08018,District,#00782A,13.91111737,,,,,,,
Barons Court,51.490281,-0.21434,District,#00782A,7.255917654,,,,,,,
Bayswater 2,51.51224,-0.187569,District,#00782A,4.984369485,,,,,,,
Becontree,51.54029,0.1262,District,#00782A,17.01532474,,,,,,,
Blackfriars 2,51.5114403,-0.1041905,District,#00782A,0.788957531,,,,,,,
Bow Road,51.52709,-0.02482,District,#00782A,6.494945813,,,,,,,
Bromley-by-Bow,51.52466,-0.01282,District,#00782A,7.243750399,,,,,,,
Cannon Street 2,51.51141,-0.09047,District,#00782A,1.736773718,,,,,,,
Chiswick Park,51.49466,-0.26866,District,#00782A,10.77384437,,,,,,,
Dagenham East,51.54396,0.16439,District,#00782A,19.68670437,,,,,,,
Dagenham Heathway,51.54173,0.14543,District,#00782A,18.35232003,,,,,,,
Ealing Broadway 2,51.51482,-0.30118,District,#00782A,12.8496635,,,,,,,
Ealing Common,51.50997,-0.28825,District,#00782A,11.95429194,,,,,,,
Earl's Court,51.491521,-0.193906,District,#00782A,5.886688936,,,,,,,
East Ham,51.53931,0.0526,District,#00782A,12.01963994,,,,,,,
East Putney,51.459015,-0.211138,District,#00782A,8.868286107,,,,,,,
Edgware Road 3,51.520195,-0.166986,District,#00782A,3.671908298,,,,,,,
Elm Park,51.54969,0.19779,District,#00782A,22.07385521,,,,,,,
Embankment 3,51.50717,-0.12195,District,#00782A,0.704374924,,,,,,,
Fulham Broadway,51.48033,-0.19488,District,#00782A,6.529753907,,,,,,,
Gloucester Road 2,51.49408266,-0.17295341,District,#00782A,4.449779297,,,,,,,
Gunnersbury,51.49126844,-0.275554312,District,#00782A,11.31509532,,,,,,,
Hammersmith 2,51.492328,-0.222825,District,#00782A,7.744123483,,,,,,,
High Street Kensington 2,51.50034591,-0.192351664,District,#00782A,5.474105394,,,,,,,
Hornchurch,51.55387,0.21797,District,#00782A,23.53228342,,,,,,,
Kensington (Olympia),51.49675,-0.20931,District,#00782A,6.710434195,,,,,,,
Kew Gardens,51.47725641,-0.284980014,District,#00782A,12.35290741,,,,,,,
Mansion House 2,51.51256,-0.09397,District,#00782A,1.493795996,,,,,,,
Mile End 2,51.525306,-0.033471,District,#00782A,5.865740664,,,,,,,
Monument 2,51.510165,-0.085991,District,#00782A,2.056298168,,,,,,,
Notting Hill Gate 3,51.509028,-0.1962847,District,#00782A,5.598060251,,,,,,,
Paddington 3,51.51518466,-0.175538808,District,#00782A,4.165912853,,,,,,,
Parsons Green,51.47488,-0.20205,District,#00782A,7.279307175,,,,,,,
Plaistow,51.53122,0.01659,District,#00782A,9.386122367,,,,,,,
Putney Bridge,51.46868,-0.2088141,District,#00782A,8.062430566,,,,,,,
Ravenscourt Park,51.49419,-0.2356,District,#00782A,8.544926913,,,,,,,
Richmond,51.46343247,-0.302033247,District,#00782A,14.00020503,,,,,,,
Sloane Square 2,51.49258474,-0.156090904,District,#00782A,3.547117025,,,,,,,
South Kensington 2,51.494066,-0.172791,District,#00782A,4.440580062,,,,,,,
Southfields,51.444941,-0.206466,District,#00782A,9.767407271,,,,,,,
St.James's Park 2,51.49971,-0.13394,District,#00782A,1.875332895,,,,,,,
Stamford Brook,51.494935,-0.24619,District,#00782A,9.241800915,,,,,,,
Stepney Green,51.521884,-0.046546,District,#00782A,4.896809773,,,,,,,
Temple 2,51.51114,-0.11341,District,#00782A,0.181643703,,,,,,,
Tower Hill 2,51.50991,-0.076813,District,#00782A,2.691220937,,,,,,,
Turnham Green,51.495143,-0.25406,District,#00782A,9.770929215,,,,,,,
Upminster,51.55925,0.25177,District,#00782A,25.94115203,,,,,,,
Upminster Bridge,51.55847,0.23509,District,#00782A,24.79439279,,,,,,,
Upney,51.53824,0.09998,District,#00782A,15.19119714,,,,,,,
Upton Park,51.53514,0.03373,District,#00782A,10.64063114,,,,,,,
Victoria 2,51.49662869,-0.14400853,District,#00782A,2.614995627,,,,,,,
West Brompton,51.48681,-0.19475,District,#00782A,6.161512311,,,,,,,
West Ham,51.527917,0.004141,District,#00782A,8.465840017,,,,,,,
West Kensington,51.49085,-0.20532,District,#00782A,6.64796202,,,,,,,
Westminster 2,51.50121,-0.12489,District,#00782A,1.372096123,,,,,,,
Whitechapel,51.51946,-0.05951,District,#00782A,3.962901279,,,,,,,
Wimbledon,51.422,-0.20544,District,#00782A,11.79550288,,,,,,,
Wimbledon Park,51.43391,-0.19864,District,#00782A,10.4259656,,,,,,,
Abbey Road,51.531952,0.003723,DLR,#00A4A7,8.542047756,,,,,,,
All Saints,51.510301,-0.012832,DLR,#00A4A7,7.110745596,,,,,,,
Bank 2,51.5134047,-0.08905843,DLR,#00A4A7,1.838564841,,,,,,,
Beckton,51.514411,0.06164,DLR,#00A4A7,12.2638322,,,,,,,
Beckton Park,51.508758,0.054778,DLR,#00A4A7,11.79282843,,,,,,,
Blackwall,51.507903,-0.007438,DLR,#00A4A7,7.495922757,,,,,,,
Bow Church,51.5289,-0.021,DLR,#00A4A7,6.803124744,,,,,,,
Canary Wharf,51.505946,-0.020493,DLR,#00A4A7,6.613507433,,,,,,,
Canning Town,51.51388,0.008876,DLR,#00A4A7,8.612181546,,,,,,,
Crossharbour,51.495086,-0.014543,DLR,#00A4A7,7.241955599,,,,,,,
Custom House,51.509731,0.026013,DLR,#00A4A7,9.799742283,,,,,,,
Cutty Sark,51.481713,-0.010811,DLR,#00A4A7,7.998413785,,,,,,,
Cyprus,51.50836,0.06399,DLR,#00A4A7,12.431495,,,,,,,
Deptford Bridge,51.478016,-0.022496,DLR,#00A4A7,7.473249419,,,,,,,
Devons Road,51.522274,-0.01708,DLR,#00A4A7,6.906516311,,,,,,,
East India,51.509516,-0.002128,DLR,#00A4A7,7.854002524,,,,,,,
Elverson Road,51.468768,-0.016265,DLR,#00A4A7,8.393603868,,,,,,,
Gallions Reach,51.509111,0.071911,DLR,#00A4A7,12.97686588,,,,,,,
Greenwich,51.478016,-0.015391,DLR,#00A4A7,7.901141425,,,,,,,
Heron Quays,51.5046489,-0.0207681,DLR,#00A4A7,6.611166932,,,,,,,
Island Gardens,51.488001,-0.011039,DLR,#00A4A7,7.713878796,,,,,,,
King George V,51.50202,0.06299,DLR,#00A4A7,12.40687349,,,,,,,
Lewisham,51.465216,-0.013166,DLR,#00A4A7,8.798493641,,,,,,,
Limehouse,51.5124366,-0.0395511,DLR,#00A4A7,5.258918704,,,,,,,
London City Airport,51.50319,0.04864,DLR,#00A4A7,11.40594959,,,,,,,
Mudchute,51.491185,-0.014595,DLR,#00A4A7,7.363997214,,,,,,,
Pontoon Dock,51.50205,0.03308,DLR,#00A4A7,10.34658586,,,,,,,
Poplar,51.507725,-0.016503,DLR,#00A4A7,6.871283721,,,,,,,
Prince Regent,51.509471,0.033473,DLR,#00A4A7,10.31663273,,,,,,,
Pudding Mill Lane,51.5339,-0.0142,DLR,#00A4A7,7.418964044,,,,,,,
Royal Albert,51.508456,0.046148,DLR,#00A4A7,11.19710305,,,,,,,
Royal Victoria,51.509156,0.018083,DLR,#00A4A7,9.253257736,,,,,,,
Shadwell,51.511853,-0.05548,DLR,#00A4A7,4.156581611,,,,,,,
South Quay,51.500413,-0.018636,DLR,#00A4A7,6.831595242,,,,,,,
Star Lane,51.520604,0.004191,DLR,#00A4A7,8.338958018,,,,,,,
Stratford 2,51.54047,-0.005085,DLR,#00A4A7,8.267424199,,,,,,,
Tower Gateway,51.510911,-0.073466,DLR,#00A4A7,2.91481427,,,,,,,
West Ham 2,51.527917,0.004141,DLR,#00A4A7,8.465840017,,,,,,,
West India Quay,51.506723,-0.01988,DLR,#00A4A7,6.647333521,,,,,,,
West Silvertown,51.50335,0.02208,DLR,#00A4A7,9.574187932,,,,,,,
Westferry,51.509576,-0.02699,DLR,#00A4A7,6.134605249,,,,,,,
Woolwich Arsenal,51.489907,0.069194,DLR,#00A4A7,13.02307084,,,,,,,
Aldgate East 2,51.51514,-0.07178,Hammersmith & City,#F3A9BB,3.047296449,,,,,,,
Baker Street 3,51.52265,-0.15704,Hammersmith & City,#F3A9BB,3.102079798,,,,,,,
Barbican 2,51.520865,-0.097758,Hammersmith & City,#F3A9BB,1.57038299,,,,,,,
Barking 2,51.54079,0.08018,Hammersmith & City,#F3A9BB,13.91111737,,,,,,,
Bow Road 2,51.52709,-0.02482,Hammersmith & City,#F3A9BB,6.494945813,,,,,,,
Bromley-by-Bow 2,51.52466,-0.01282,Hammersmith & City,#F3A9BB,7.243750399,,,,,,,
East Ham 2,51.53931,0.0526,Hammersmith & City,#F3A9BB,12.01963994,,,,,,,
Edgware Road 4,51.520195,-0.166986,Hammersmith & City,#F3A9BB,3.671908298,,,,,,,
Euston Square 2,51.52584,-0.1357,Hammersmith & City,#F3A9BB,2.069329688,,,,,,,
Farringdon,51.520086,-0.104789,Hammersmith & City,#F3A9BB,1.159251912,,,,,,,
Goldhawk Road 2,51.501248,-0.226776,Hammersmith & City,#F3A9BB,7.792331559,,,,,,,
Great Portland Street 2,51.52391,-0.14397,Hammersmith & City,#F3A9BB,2.365537369,,,,,,,
Hammersmith 3,51.49419075,-0.225964953,Hammersmith & City,#F3A9BB,7.897886276,,,,,,,
King's Cross St.Pancras 2,51.53057,-0.12399,Hammersmith & City,#F3A9BB,2.136161838,,,,,,,
Ladbroke Grove 2,51.5173,-0.21114,Hammersmith & City,#F3A9BB,6.640434319,,,,,,,
Latimer Road 2,51.513125,-0.218428,Hammersmith & City,#F3A9BB,7.120703478,,,,,,,
Liverpool Street 3,51.517675,-0.082458,Hammersmith & City,#F3A9BB,2.372087264,,,,,,,
Mile End 3,51.525306,-0.033471,Hammersmith & City,#F3A9BB,5.865740664,,,,,,,
Moorgate 2,51.51817,-0.08859,Hammersmith & City,#F3A9BB,1.983755569,,,,,,,
Paddington 4,51.51909671,-0.176968859,Hammersmith & City,#F3A9BB,4.321246964,,,,,,,
Plaistow 2,51.53122,0.01659,Hammersmith & City,#F3A9BB,9.386122367,,,,,,,
Royal Oak 2,51.519383,-0.187785,Hammersmith & City,#F3A9BB,5.06421282,,,,,,,
Shepherd's Bush Market 2,51.506063,-0.226231,Hammersmith & City,#F3A9BB,7.68962717,,,,,,,
Stepney Green 2,51.521884,-0.046546,Hammersmith & City,#F3A9BB,4.896809773,,,,,,,
Upton Park 2,51.53514,0.03373,Hammersmith & City,#F3A9BB,10.64063114,,,,,,,
West Ham 3,51.527917,0.004141,Hammersmith & City,#F3A9BB,8.465840017,,,,,,,
Westbourne Park 2,51.520995,-0.201778,Hammersmith & City,#F3A9BB,6.04862295,,,,,,,
Whitechapel 2,51.51946,-0.05951,Hammersmith & City,#F3A9BB,3.962901279,,,,,,,
Wood Lane 2,51.5091345,-0.2252285,Hammersmith & City,#F3A9BB,7.597833238,,,,,,,
Baker Street 4,51.52265,-0.15704,Jubilee,#A0A5A9,3.102079798,,,,,,,
Bermondsey,51.49813,-0.0635,Jubilee,#A0A5A9,3.922363584,,,,,,,
Bond Street 2,51.51461,-0.14897,Jubilee,#A0A5A9,2.330038305,,,,,,,
Canada Water,51.49787,-0.04967,Jubilee,#A0A5A9,4.825736781,,,,,,,
Canary Wharf 2,51.50362,-0.01987,Jubilee,#A0A5A9,6.688065694,,,,,,,
Canning Town 2,51.51388,0.008876,Jubilee,#A0A5A9,8.612181546,,,,,,,
Canons Park,51.6081,-0.29487,Jubilee,#A0A5A9,16.3599198,,,,,,,
Dollis Hill,51.5525,-0.23884,Jubilee,#A0A5A9,9.639811744,,,,,,,
Finchley Road,51.546701,-0.179867,Jubilee,#A0A5A9,5.882964754,,,,,,,
Green Park,51.50674,-0.14276,Jubilee,#A0A5A9,1.975361164,,,,,,,
Kilburn,51.5471715,-0.205002,Jubilee,#A0A5A9,7.315124193,,,,,,,
Kingsbury,51.58422,-0.2788,Jubilee,#A0A5A9,13.84778435,,,,,,,
London Bridge,51.505353,-0.084826,Jubilee,#A0A5A9,2.254041324,,,,,,,
Neasden,51.55427,-0.25042,Jubilee,#A0A5A9,10.44195895,,,,,,,
North Greenwich,51.50056,0.0036,Jubilee,#A0A5A9,8.345095633,,,,,,,
Queensbury,51.59437,-0.28655,Jubilee,#A0A5A9,14.94970904,,,,,,,
Southwark,51.50384,-0.10478,Jubilee,#A0A5A9,1.181869144,,,,,,,
St.John's Wood,51.53472,-0.17428,Jubilee,#A0A5A9,4.77960517,,,,,,,
Stanmore,51.61895,-0.30241,Jubilee,#A0A5A9,17.55041269,,,,,,,
Stratford 3,51.541208,-0.003776,Jubilee,#A0A5A9,8.382490925,,,,,,,
Swiss Cottage,51.54333,-0.17436,Jubilee,#A0A5A9,5.349851004,,,,,,,
Waterloo 2,51.50322,-0.11328,Jubilee,#A0A5A9,0.998876445,,,,,,,
Wembley Park,51.56355598,-0.279770242,Jubilee,#A0A5A9,12.71855601,,,,,,,
West Ham 4,51.527917,0.004141,Jubilee,#A0A5A9,8.465840017,,,,,,,
West Hampstead,51.54657,-0.19055,Jubilee,#A0A5A9,6.451374063,,,,,,,
Westminster 3,51.50121,-0.12489,Jubilee,#A0A5A9,1.372096123,,,,,,,
Willesden Green,51.54919,-0.22106,Jubilee,#A0A5A9,8.384048447,,,,,,,
Aldgate 2,51.51394,-0.07537,Metropolitation,#9B0056,2.787583783,,,,,,,
Baker Street 5,51.52265,-0.15704,Metropolitation,#9B0056,3.102079798,,,,,,,
Barbican 3,51.520865,-0.097758,Metropolitation,#9B0056,1.57038299,,,,,,,
Croxley,51.64733268,-0.441479115,Metropolitation,#9B0056,27.08100136,,,,,,,
Eastcote,51.57676,-0.39629,Metropolitation,#9B0056,20.70334896,,,,,,,
Euston Square 3,51.52584,-0.1357,Metropolitation,#9B0056,2.069329688,,,,,,,
Farringdon 2,51.52036295,-0.105126482,Metropolitation,#9B0056,1.168481112,,,,,,,
Finchley Road 2,51.546701,-0.179867,Metropolitation,#9B0056,5.882964754,,,,,,,
Great Portland Street 3,51.52391,-0.14397,Metropolitation,#9B0056,2.365537369,,,,,,,
Harrow-on-the-Hill,51.579335,-0.337052,Metropolitation,#9B0056,17.04507046,,,,,,,
Hillingdon,51.55364,-0.45062,Metropolitation,#9B0056,23.633391,,,,,,,
Ickenham,51.56147,-0.44257,Metropolitation,#9B0056,23.27553549,,,,,,,
King's Cross St.Pancras 3,51.53057,-0.12399,Metropolitation,#9B0056,2.136161838,,,,,,,
Liverpool Street 4,51.517675,-0.082458,Metropolitation,#9B0056,2.372087264,,,,,,,
Moor Park,51.62970512,-0.432070848,Metropolitation,#9B0056,25.48717078,,,,,,,
Moorgate 3,51.51817,-0.08859,Metropolitation,#9B0056,1.983755569,,,,,,,
North Harrow,51.58503612,-0.362595264,Metropolitation,#9B0056,18.91062315,,,,,,,
Northwick Park,51.57850117,-0.317857023,Metropolitation,#9B0056,15.81955802,,,,,,,
Northwood,51.61098984,-0.423584422,Metropolitation,#9B0056,23.9658999,,,,,,,
Northwood Hills,51.60043795,-0.408812575,Metropolitation,#9B0056,22.52966241,,,,,,,
Pinner,51.59270271,-0.380539158,Metropolitation,#9B0056,20.39709856,,,,,,,
Preston Road,51.57229051,-0.295813875,Metropolitation,#9B0056,14.15024593,,,,,,,
Rickmansworth,51.64027898,-0.473521454,Metropolitation,#9B0056,28.55056432,,,,,,,
Ruislip,51.57146,-0.42157,Metropolitation,#9B0056,22.16954963,,,,,,,
Ruislip Manor,51.57349,-0.41185,Metropolitation,#9B0056,21.59861791,,,,,,,
Uxbridge,51.54687,-0.47725,Metropolitation,#9B0056,25.31837817,,,,,,,
Watford,51.65741058,-0.41745306,Metropolitation,#9B0056,26.385958,,,,,,,
Wembley Park 2,51.56355598,-0.279770242,Metropolitation,#9B0056,12.71855601,,,,,,,
West Harrow,51.5795432,-0.353144584,Metropolitation,#9B0056,18.06127261,,,,,,,
Angel,51.53253,-0.10579,Northern,#000000,2.370662991,,,,,,,
Archway,51.56536,-0.13474,Northern,#000000,6.070112086,,,,,,,
Balham,51.44344113,-0.152945844,Northern,#000000,8.061138877,,,,,,,
Bank 3,51.5134047,-0.08905843,Northern,#000000,1.838564841,,,,,,,
Belsize Park,51.55036,-0.16465,Northern,#000000,5.44477566,,,,,,,
Borough,51.50095,-0.09446,Northern,#000000,1.914190032,,,,,,,
Brent Cross,51.57693,-0.21414,Northern,#000000,9.923095462,,,,,,,
Burnt Oak,51.603,-0.26427,Northern,#000000,14.41874623,,,,,,,
Camden Town,51.5393,-0.14316,Northern,#000000,3.578173234,,,,,,,
Chalk Farm,51.5439,-0.15384,Northern,#000000,4.419095808,,,,,,,
Charing Cross 2,51.507108,-0.122963,Northern,#000000,0.75552817,,,,,,,
Clapham Common,51.46156,-0.13802,Northern,#000000,5.83045328,,,,,,,
Clapham North,51.46522,-0.1295,Northern,#000000,5.30075776,,,,,,,
Clapham South,51.45292257,-0.147562148,Northern,#000000,6.942897911,,,,,,,
Colindale,51.59556,-0.24996,Northern,#000000,13.1342475,,,,,,,
Colliers Wood,51.41823649,-0.17800983,Northern,#000000,11.29782472,,,,,,,
East Finchley,51.58729747,-0.164956323,Northern,#000000,9.033524238,,,,,,,
Edgware,51.61385,-0.27515,Northern,#000000,15.80351411,,,,,,,
Elephant & Castle 2,51.49467,-0.10047,Northern,#000000,2.200302235,,,,,,,
Embankment 4,51.50717,-0.12195,Northern,#000000,0.704374924,,,,,,,
Euston,51.52774,-0.13303,Northern,#000000,2.119304855,,,,,,,
Finchley Central,51.60102,-0.1924,Northern,#000000,11.22551903,,,,,,,
Golders Green,51.57249,-0.1941,Northern,#000000,8.638186471,,,,,,,
Goodge Street,51.5206,-0.13441,Northern,#000000,1.612256495,,,,,,,
Hampstead,51.55645,-0.17851,Northern,#000000,6.580067169,,,,,,,
Hendon Central,51.58346,-0.22653,Northern,#000000,11.0396748,,,,,,,
High Barnet,51.6506519,-0.194138166,Northern,#000000,16.33623806,,,,,,,
Highgate,51.57722,-0.14553,Northern,#000000,7.53294807,,,,,,,
Kennington,51.48823,-0.10587,Northern,#000000,2.736512025,,,,,,,
Kentish Town,51.55046,-0.14067,Northern,#000000,4.606795784,,,,,,,
King's Cross St.Pancras 4,51.53057,-0.12399,Northern,#000000,2.136161838,,,,,,,
Leicester Square,51.51148,-0.12849,Northern,#000000,0.898546272,,,,,,,
London Bridge 2,51.505353,-0.084826,Northern,#000000,2.254041324,,,,,,,
Mill Hill East,51.60892,-0.20965,Northern,#000000,12.57953869,,,,,,,
Moorgate 4,51.51817,-0.08859,Northern,#000000,1.983755569,,,,,,,
Morden,51.40222413,-0.194599126,Northern,#000000,13.38847712,,,,,,,
Mornington Crescent,51.53427,-0.13901,Northern,#000000,2.952547466,,,,,,,
Nine Elms,51.480001,-0.128501,Northern,#000000,3.679380649,,,,,,,
Old Street,51.52618,-0.08751,Northern,#000000,2.493226743,,,,,,,
Oval,51.48214,-0.11284,Northern,#000000,3.335762543,,,,,,,
South Wimbledon,51.41543048,-0.192262754,Northern,#000000,11.99051161,,,,,,,
Stockwell,51.47224,-0.1227,Northern,#000000,4.458956425,,,,,,,
Tooting Bec,51.43578971,-0.159635693,Northern,#000000,9.017293054,,,,,,,
Tooting Broadway,51.42780008,-0.167910811,Northern,#000000,10.05024427,,,,,,,
Tottenham Court Road 2,51.51672074,-0.13093911,Northern,#000000,1.183199945,,,,,,,
Totteridge & Whetstone,51.63022,-0.17917,Northern,#000000,13.85177112,,,,,,,
Tufnell Park,51.55663,-0.13813,Northern,#000000,5.192981254,,,,,,,
Warren Street,51.5245,-0.1381,Northern,#000000,2.08317598,,,,,,,
Waterloo 3,51.50322,-0.11328,Northern,#000000,0.998876445,,,,,,,
West Finchley,51.60922281,-0.188711152,Northern,#000000,11.92614874,,,,,,,
Woodside Park,51.61817173,-0.185578888,Northern,#000000,12.75027753,,,,,,,
Acton Central,51.50883531,-0.263033174,Overground,#EE7C0E,10.21341501,,,,,,,
Anerley,51.412151,-0.065886,Overground,#EE7C0E,11.63321905,N,,,,,,
Barking 3,51.54079,0.08018,Overground,#EE7C0E,13.91111737,,,,,,,
Bethnal Green 2,51.523916,-0.059568,Overground,#EE7C0E,4.090159294,,,,,,,
Blackhorse Road,51.58698,-0.04104,Overground,#EE7C0E,9.791827083,N,,,,,,
Brockley,51.464647,-0.037537,Overground,#EE7C0E,7.550039096,,,,,,,
Brondesbury,51.54505,-0.20297,Overground,#EE7C0E,7.071640018,,,,,,,
Brondesbury Park,51.5406,-0.21093,Overground,#EE7C0E,7.320807544,,,,,,,
Bruce Grove,51.593958,-0.069867,Overground,#EE7C0E,9.635315572,N,,,,,,
Bush Hill Park,51.641517,-0.069221,Overground,#EE7C0E,14.7431008,N,,,,,,
Bushey,51.64575,-0.385321,Overground,#EE7C0E,23.84108513,N,,,,,,
Caledonian Road & Barnesbury,51.54326,-0.11544,Overground,#EE7C0E,3.465730798,,,,,,,
Cambridge Heath,51.531971,-0.057279,Overground,#EE7C0E,4.597381928,N,,,,,,
Camden Road,51.54192,-0.13981,Overground,#EE7C0E,3.717383541,,,,,,,
Canada Water 2,51.49787,-0.04967,Overground,#EE7C0E,4.825736781,,,,,,,
Canonbury,51.54822,-0.09632,Overground,#EE7C0E,4.231609625,,,,,,,
Carpenders Park,51.62835,-0.385939,Overground,#EE7C0E,22.72352364,N,,,,,,
Cheshunt,51.702875,-0.02396,Overground,#EE7C0E,22.13677121,N,,,,,,
Chingford,51.633085,0.009897,Overground,#EE7C0E,16.0049814,N,,,,,,
Clapham High Street,51.465479,-0.132522,Overground,#EE7C0E,5.314774088,N,,,,,,
Clapham Junction,51.464187,-0.170293,Overground,#EE7C0E,6.537961043,N,,,,,,
Clapton,51.561642,-0.057025,Overground,#EE7C0E,6.836523464,N,,,,,,
Crouch Hill,51.5713,-0.117149,Overground,#EE7C0E,6.584565999,N,,,,,,
Crystal Palace,51.418107,-0.07261,Overground,#EE7C0E,10.86561355,N,,,,,,
Dalston Junction,51.546114,-0.075138,Overground,#EE7C0E,4.703620281,N,,,,,,
Dalston Kingsland,51.54832,-0.07879,Overground,#EE7C0E,4.76355167,,,,,,,
Denmark Hill,51.468201,-0.089361,Overground,#EE7C0E,5.206228624,N,,,,,,
Edmonton Green,51.624927,-0.061112,Overground,#EE7C0E,13.09856226,N,,,,,,
Emerson Park,51.56864,0.220113,Overground,#EE7C0E,24.05017414,N,,,,,,
Enfield Town,51.652024,-0.079328,Overground,#EE7C0E,15.75965271,N,,,,,,
Euston 2,51.52774,-0.13303,Overground,#EE7C0E,2.119304855,N,,,,,,
Finchley Road and Frognal,51.54994,-0.18412,Overground,#EE7C0E,6.341467601,,,,,,,
Forest Hill,51.439278,-0.053157,Overground,#EE7C0E,9.177278527,N,,,,,,
Gospel Oak,51.55597,-0.15228,Overground,#EE7C0E,5.50106328,,,,,,,
Gunnersbury 2,51.491676,-0.275286,Overground,#EE7C0E,11.28766699,N,,,,,,
Hackney Central,51.54689,-0.05784,Overground,#EE7C0E,5.559241858,,,,,,,
Hackney Downs,51.548756,-0.060819,Overground,#EE7C0E,5.563331411,N,,,,,,
Hackney Wick,51.54348,-0.02474,Overground,#EE7C0E,7.186084236,,,,,,,
Haggerston,51.538704,-0.075667,Overground,#EE7C0E,4.045589626,N,,,,,,
Hampstead Heath,51.55533,-0.16656,Overground,#EE7C0E,5.963880207,,,,,,,
Harginay Green Lanes,51.6025,-0.356908,Overground,#EE7C0E,19.48065484,N,,,,,,
Harlesden 2,51.53628278,-0.257622488,Overground,#EE7C0E,10.19099064,N,,,,,,
Harrow & Wealdstone 2,51.59205973,-0.334725352,Overground,#EE7C0E,17.57066198,N,,,,,,
Hatch End,51.609829,-0.369179,Overground,#EE7C0E,20.62829486,N,,,,,,
Headstone Lane,51.6025,-0.356908,Overground,#EE7C0E,19.48065484,,,,,,,
Highams Park,51.608356,-0.000135,Overground,#EE7C0E,13.3501321,,,,,,,
Highbury & Islington,51.54502,-0.10752,Overground,#EE7C0E,3.703252347,,,,,,,
Homerton,51.5471,-0.04323,Overground,#EE7C0E,6.33846127,,,,,,,
Honor Oak Park,51.608356,-0.000135,Overground,#EE7C0E,13.3501321,N,,,,,,
Hoxton,51.531392,-0.075586,Overground,#EE7C0E,3.499738164,N,,,,,,
Imperial Wharf,51.531392,-0.075586,Overground,#EE7C0E,3.499738164,N,,,,,,
Kensal Green 2,51.530524,-0.224713,Overground,#EE7C0E,7.826393401,N,,,,,,
Kensal Rise,51.53387,-0.22145,Overground,#EE7C0E,7.717028083,,,,,,,
Kensington (Olympia) 2,51.49675,-0.20931,Overground,#EE7C0E,6.710434195,N,,,,,,
Kentish Town West,51.54776,-0.14708,Overground,#EE7C0E,4.526500934,,,,,,,
Kenton 2,51.581496,-0.315217,Overground,#EE7C0E,15.81771196,N,,,,,,
Kew Gardens 2,51.47725641,-0.284980014,Overground,#EE7C0E,12.35290741,N,,,,,,
Kilburn High Road,51.537268,-0.191113,Overground,#EE7C0E,5.930473129,N,,,,,,
Leyton Midland Road,51.569364,-0.008066,Overground,#EE7C0E,9.787991945,N,,,,,,
Leytonstone High Road,51.563807,0.008254,Overground,#EE7C0E,10.31396994,N,,,,,,
Liverpool Street 5,51.517598,-0.08225,Overground,#EE7C0E,2.383770233,N,,,,,,
London Fields,51.540719,-0.0577,Overground,#EE7C0E,5.113258422,N,,,,,,
New Cross,51.477363,-0.0338817,Overground,#EE7C0E,6.846333966,,,,,,,
New Cross Gate,51.47585,-0.04049,Overground,#EE7C0E,6.575529243,,,,,,,
North Wembley 2,51.56258091,-0.304072648,Overground,#EE7C0E,14.19663603,N,,,,,,
Norwood Junction,51.396954,-0.07521,Overground,#EE7C0E,13.10422748,N,,,,,,
Peckham Rye,51.469511,-0.069984,Overground,#EE7C0E,5.689248549,N,,,,,,
Penge West,51.418063,-0.060646,Overground,#EE7C0E,11.12567134,N,,,,,,
Queens Park,51.534179,-0.205257721,Overground,#EE7C0E,6.651116338,N,,,,,,
Queens Road Peckham,51.534313,-0.204798,Overground,#EE7C0E,6.651116338,N,,,,,,
Rectory Road,51.558763,-0.068386,Overground,#EE7C0E,6.129465938,N,,,,,,
Richmond 2,51.463233,-0.301739,Overground,#EE7C0E,13.99004129,N,,,,,,
Romford,51.574642,0.183055,Overground,#EE7C0E,21.78928902,N,,,,,,
Rotherhithe,51.50089,-0.05211,Overground,#EE7C0E,4.563519412,,,,,,,
Seven Sisters,51.58318,-0.07495,Overground,#EE7C0E,8.388202296,N,,,,,,
Shadwell 2,51.511853,-0.05548,Overground,#EE7C0E,4.156581611,N,,,,,,
Shepherd's Bush 2,51.574642,0.183055,Overground,#EE7C0E,21.78928902,N,,,,,,
Shoreditch High Street,51.523467,-0.077087,Overground,#EE7C0E,2.946223795,N,,,,,,
Silver Street,51.615242,-0.07259,Overground,#EE7C0E,11.84781372,N,,,,,,
South Acton,51.49960784,-0.270187631,Overground,#EE7C0E,10.79284359,,,,,,,
South Hampstead,51.541477,-0.178371,Overground,#EE7C0E,5.437622684,N,,,,,,
South Kenton 2,51.57044666,-0.308566354,Overground,#EE7C0E,14.84254408,N,,,,,,
South Tottenham,51.541477,-0.178371,Overground,#EE7C0E,5.437622684,N,,,,,,
Southbury,51.541477,-0.178371,Overground,#EE7C0E,5.437622684,N,,,,,,
St James Street,51.580609,-0.032805,Overground,#EE7C0E,9.527796681,N,,,,,,
Stamford Hill,51.580609,-0.032805,Overground,#EE7C0E,9.527796681,N,,,,,,
Stoke Newington,51.574448,-0.076668,Overground,#EE7C0E,7.436614059,N,,,,,,
Stonebridge Park 2,51.54402388,-0.275978856,Overground,#EE7C0E,11.6527343,N,,,,,,
Stratford 4,51.54047,-0.005085,Overground,#EE7C0E,8.267424199,N,,,,,,
Surrey Quays,51.49365,-0.04816,Overground,#EE7C0E,5.094897915,N,,,,,,
Sydenham,51.574448,-0.076668,Overground,#EE7C0E,7.436614059,N,,,,,,
Theobalds Grove,51.692373,-0.034748,Overground,#EE7C0E,20.80848304,N,,,,,,
Turkey Street,51.672654,-0.04723,Overground,#EE7C0E,18.46681879,N,,,,,,
Upminster 2,51.558763,0.251401,Overground,#EE7C0E,25.90538772,N,,,,,,
Upper Holloway,51.563623,-0.129109,Overground,#EE7C0E,5.806296331,N,,,,,,
Walthamstow Central,51.583018,-0.019941,Overground,#EE7C0E,10.29077548,N,,,,,,
Walthamstow Queens Road,51.581546,-0.023844,Overground,#EE7C0E,9.992546312,N,,,,,,
Wandsworth Road,51.470223,-0.139038,Overground,#EE7C0E,4.931611517,N,,,,,,
Wanstead Park,51.551778,0.02639,Overground,#EE7C0E,10.76393696,N,,,,,,
Wapping,51.50451,-0.05607,Overground,#EE7C0E,4.201455865,N,,,,,,
Watford High Street,51.652654,-0.391697,Overground,#EE7C0E,24.66517492,N,,,,,,
Watford Junction,51.663883,-0.396172,Overground,#EE7C0E,25.70531019,N,,,,,,
Wembley Central 2,51.55122817,-0.29577538,Overground,#EE7C0E,13.2047785,N,,,,,,
West Brompton 2,51.48681,-0.19475,Overground,#EE7C0E,6.161512311,N,,,,,,
West Croydon,51.378552,-0.102034,Overground,#EE7C0E,14.8784553,N,,,,,,
West Hampstead 2,51.547474,-0.191127,Overground,#EE7C0E,6.543419061,N,,,,,,
White Hart Lane,51.605035,-0.07087,Overground,#EE7C0E,10.78635886,N,,,,,,
Whitechapel 3,51.51946,-0.05951,Overground,#EE7C0E,3.962901279,N,,,,,,
Willesden Junction 2,51.532234,-0.243909,Overground,#EE7C0E,9.159283798,N,,,,,,
Wood Street,51.58667,-0.001954,Overground,#EE7C0E,11.4217594,N,,,,,,
Woodgrange Park,51.549053,0.044572,Overground,#EE7C0E,11.81373479,N,,,,,,
Acton Town 2,51.5025,-0.278126,Piccadilly,#003688,11.30270408,,,,,,,
Alperton,51.54097,-0.30061,Piccadilly,#003688,13.19950401,,,,,,,
Arnos Grove,51.61625,-0.13355,Piccadilly,#003688,11.64853267,,,,,,,
Arsenal,51.55847,-0.10561,Piccadilly,#003688,5.202561661,,,,,,,
Barons Court 2,51.490281,-0.21434,Piccadilly,#003688,7.255917654,,,,,,,
Boston Manor,51.495371,-0.325573,Piccadilly,#003688,14.65559788,,,,,,,
Bounds Green,51.607,-0.12418,Piccadilly,#003688,10.57016502,,,,,,,
Caledonian Road,51.5485,-0.11802,Piccadilly,#003688,4.052009297,,,,,,,
Cockfosters,51.65117,-0.14811,Piccadilly,#003688,15.62762678,,,,,,,
Covent Garden,51.51308,-0.12427,Piccadilly,#003688,0.613831375,,,,,,,
Ealing Common 2,51.50997,-0.28825,Piccadilly,#003688,11.95429194,,,,,,,
Earl's Court 2,51.491521,-0.193906,Piccadilly,#003688,5.886688936,,,,,,,
Eastcote 2,51.57676,-0.39629,Piccadilly,#003688,20.70334896,,,,,,,
Finsbury Park,51.56498,-0.10543,Piccadilly,#003688,5.922324381,,,,,,,
Gloucester Road 3,51.49408266,-0.17295341,Piccadilly,#003688,4.449779297,,,,,,,
Green Park 2,51.50674,-0.14276,Piccadilly,#003688,1.975361164,,,,,,,
Hammersmith 4,51.492328,-0.222825,Piccadilly,#003688,7.744123483,,,,,,,
Hatton Cross,51.466988,-0.423035,Piccadilly,#003688,21.87237846,,,,,,,
Heathrow Terminal 4,51.4594777,-0.44689658,Piccadilly,#003688,23.67774321,,,,,,,
Heathrow Terminals 1-2-3,51.4712899,-0.4527438,Piccadilly,#003688,23.78220596,,,,,,,
Hillingdon 2,51.55364,-0.45062,Piccadilly,#003688,23.633391,,,,,,,
Holborn 2,51.51711,-0.12055,Piccadilly,#003688,0.656797453,,,,,,,
Holloway Road,51.5529,-0.11278,Piccadilly,#003688,4.541665643,,,,,,,
Hounslow Central,51.47129,-0.365853,Piccadilly,#003688,17.9137789,,,,,,,
Hounslow East,51.47354,-0.356,Piccadilly,#003688,17.19024431,,,,,,,
Hounslow West,51.473689,-0.386471,Piccadilly,#003688,19.23662292,,,,,,,
Hyde Park Corner,51.50313,-0.15278,Piccadilly,#003688,2.763092432,,,,,,,
Ickenham 2,51.56147,-0.44257,Piccadilly,#003688,23.27553549,,,,,,,
King's Cross St.Pancras 5,51.53057,-0.12399,Piccadilly,#003688,2.136161838,,,,,,,
Knightsbridge,51.50169,-0.1603,Piccadilly,#003688,3.3065333,,,,,,,
Leicester Square 2,51.51148,-0.12849,Piccadilly,#003688,0.898546272,,,,,,,
Manor House,51.57038,-0.09601,Piccadilly,#003688,6.620608593,,,,,,,
North Ealing,51.51807,-0.28838,Piccadilly,#003688,11.97835435,,,,,,,
Northfields,51.499856,-0.313188,Piccadilly,#003688,13.74677912,,,,,,,
Oakwood,51.64739,-0.13192,Piccadilly,#003688,15.08695181,,,,,,,
Osterley,51.481569,-0.35196,Piccadilly,#003688,16.71424682,,,,,,,
Park Royal,51.52671,-0.28417,Piccadilly,#003688,11.78014787,,,,,,,
Piccadilly Circus 2,51.51022,-0.13392,Piccadilly,#003688,1.288675831,,,,,,,
Rayners Lane,51.57534,-0.3724,Piccadilly,#003688,19.10429698,,,,,,,
Ruislip 2,51.57146,-0.42157,Piccadilly,#003688,22.16954963,,,,,,,
Ruislip Manor 2,51.57349,-0.41185,Piccadilly,#003688,21.59861791,,,,,,,
Russell Square,51.523243,-0.124336,Piccadilly,#003688,1.381163385,,,,,,,
South Ealing,51.500801,-0.307856,Piccadilly,#003688,13.36919183,,,,,,,
South Harrow,51.56461,-0.3521,Piccadilly,#003688,17.37176066,,,,,,,
South Kensington 3,51.494066,-0.172791,Piccadilly,#003688,4.440580062,,,,,,,
Southgate,51.6324,-0.12765,Piccadilly,#003688,13.40378064,,,,,,,
Sudbury Hill,51.556998,-0.335949,Piccadilly,#003688,16.04195228,,,,,,,
Sudbury Town,51.55093,-0.31598,Piccadilly,#003688,14.5217523,,,,,,,
Turnham Green 2,51.495143,-0.25406,Piccadilly,#003688,9.770929215,,,,,,,
Turnpike Lane,51.59031,-0.10308,Piccadilly,#003688,8.740029473,,,,,,,
Uxbridge 2,51.54687,-0.47725,Piccadilly,#003688,25.31837817,,,,,,,
Wood Green,51.59709,-0.10939,Piccadilly,#003688,9.460915177,,,,,,,
Blackhorse Road 2,51.58698,-0.04104,Victoria,#0098D4,9.791827083,,,,,,,
Brixton,51.46239,-0.115421,Victoria,#0098D4,5.526616699,,,,,,,
Euston 3,51.52774,-0.13303,Victoria,#0098D4,2.119304855,,,,,,,
Finsbury Park 2,51.56498,-0.10543,Victoria,#0098D4,5.922324381,,,,,,,
Green Park 3,51.50674,-0.14276,Victoria,#0098D4,1.975361164,,,,,,,
Highbury & Islington 2,51.54502,-0.10752,Victoria,#0098D4,3.703252347,,,,,,,
King's Cross St.Pancras 6,51.53057,-0.12399,Victoria,#0098D4,2.136161838,,,,,,,
Oxford Circus 3,51.51517,-0.14119,Victoria,#0098D4,1.807466769,,,,,,,
Pimlico,51.489081,-0.133037,Victoria,#0098D4,2.830781442,,,,,,,
Seven Sisters 2,51.58318,-0.07495,Victoria,#0098D4,8.388202296,,,,,,,
Stockwell 2,51.47224,-0.1227,Victoria,#0098D4,4.458956425,,,,,,,
Tottenham Hale,51.588878,-0.059808,Victoria,#0098D4,9.36761955,,,,,,,
Vauxhall,51.48603,-0.12369,Victoria,#0098D4,2.952325396,,,,,,,
Victoria 3,51.49662869,-0.14400853,Victoria,#0098D4,2.614995627,,,,,,,
Walthamstow Central 2,51.58293,-0.01996,Victoria,#0098D4,10.28243785,,,,,,,
Warren Street 2,51.5245,-0.1381,Victoria,#0098D4,2.08317598,,,,,,,
Bank 4,51.5134047,-0.08905843,Waterloo & City,#95CDBA,1.838564841,,,,,,,
Waterloo 4,51.50322,-0.11328,Waterloo & City,#95CDBA,0.998876445,,,,,,,
